<?xml version="1.0" encoding="UTF-8"?>
<gpx xmlns="http://www.topografix.com/GPX/1/1" xmlns:xsi="http://www.w3.org/2001/XMLSchema-instance" version="1.1" creator="phpGPX/1.0RC5" xsi:schemaLocation="http://www.topografix.com/GPX/1/1 http://www.topografix.com/GPX/1/1/gpx.xsd">
  <metadata>
    <desc>Not provided</desc>
    <link href="https://maps.roadtrippers.com/trips/29300446">
      <text>Jasper Trip</text>
    </link>
    <time>2020-10-30T01:37:10+00:00</time>
  </metadata>
  <wpt lat="36.805797" lon="-76.726311">
    <time>2020-10-30T01:37:10+00:00</time>
    <name>WP-A-204 Robinson Way, Windsor, Virginia, United States</name>
  </wpt>
  <wpt lat="35.945041" lon="-83.206537">
    <time>2020-10-30T01:38:10+00:00</time>
    <name>WP-B-1015 Cosby Highway, Newport, Tennessee, United States</name>
  </wpt>
  <wpt lat="33.85259" lon="-87.27374">
    <time>2020-10-30T01:39:10+00:00</time>
    <name>WP-C-200 The Mall Way, Jasper, Alabama, United States</name>
  </wpt>
  <wpt lat="34.3952050958" lon="-85.6271893881">
    <time>2020-10-30T01:40:10+00:00</time>
    <name>WP-D-Little River Falls</name>
  </wpt>
  <wpt lat="35.0625" lon="-85.3084">
    <time>2020-10-30T01:41:10+00:00</time>
    <name>WP-E-Revelator Coffee Company</name>
  </wpt>
  <wpt lat="35.945041" lon="-83.206537">
    <time>2020-10-30T01:42:10+00:00</time>
    <name>WP-F-1015 Cosby Highway, Newport, Tennessee, United States</name>
  </wpt>
  <wpt lat="35.597667" lon="-82.550869">
    <time>2020-10-30T01:43:10+00:00</time>
    <name>WP-G-Thomas Wolfe House Memorial</name>
  </wpt>
  <wpt lat="35.705822" lon="-81.30363">
    <time>2020-10-30T01:44:10+00:00</time>
    <name>WP-H-Emerson's Coffee Valley Hills Mall</name>
  </wpt>
  <wpt lat="36.0605814217" lon="-79.0750581878">
    <time>2020-10-30T01:45:10+00:00</time>
    <name>WP-I-Joe Van Gogh Inc</name>
  </wpt>
  <trk>
    <name>Jasper Trip</name>
    <src>Roadtrippers</src>
    <type>DRIVE</type>
    <trkseg>
      <trkpt lat="36.805797" lon="-76.726311">
        <name>204 Robinson Way, Windsor, Virginia, United States</name>
      </trkpt>
      <trkpt lat="35.945041" lon="-83.206537">
        <name>1015 Cosby Highway, Newport, Tennessee, United States</name>
      </trkpt>
      <trkpt lat="33.85259" lon="-87.27374">
        <name>200 The Mall Way, Jasper, Alabama, United States</name>
      </trkpt>
      <trkpt lat="34.3952050958" lon="-85.6271893881">
        <name>Little River Falls</name>
      </trkpt>
      <trkpt lat="35.0625" lon="-85.3084">
        <name>Revelator Coffee Company</name>
      </trkpt>
      <trkpt lat="35.945041" lon="-83.206537">
        <name>1015 Cosby Highway, Newport, Tennessee, United States</name>
      </trkpt>
      <trkpt lat="35.597667" lon="-82.550869">
        <name>Thomas Wolfe House Memorial</name>
      </trkpt>
      <trkpt lat="35.705822" lon="-81.30363">
        <name>Emerson's Coffee Valley Hills Mall</name>
      </trkpt>
      <trkpt lat="36.0605814217" lon="-79.0750581878">
        <name>Joe Van Gogh Inc</name>
      </trkpt>
    </trkseg>
  </trk>
</gpx>
